City_ID,City,Lat,Lng,Max Temp,Humidity,Cloudiness,Wind Speed,Country,Date
0,Ushuaia,-54.8,-68.3,41.0,80,20,6.93,AR,2020-09-06 23:01:01
1,Conneaut,41.95,-80.55,69.8,64,90,6.8,US,2020-09-06 23:02:13
2,Lagoa,39.05,-27.98,68.61,73,72,23.22,PT,2020-09-06 23:02:13
3,Albany,42.6,-73.97,73.99,64,34,0.72,US,2020-09-06 23:02:14
4,Norman Wells,65.28,-126.83,55.4,54,75,10.29,CA,2020-09-06 23:02:14
5,Farmersville,36.3,-119.21,104.0,27,0,6.38,US,2020-09-06 23:02:14
6,Rikitea,-23.12,-134.97,73.42,84,0,12.62,PF,2020-09-06 23:02:15
7,Hermanus,-34.42,19.23,55.0,82,5,1.01,ZA,2020-09-06 23:02:15
8,Inhambane,-23.86,35.38,67.5,68,45,5.79,MZ,2020-09-06 23:02:15
9,Saint-Philippe,-21.36,55.77,66.2,72,40,6.93,RE,2020-09-06 23:02:15
10,Barrow,71.29,-156.79,37.4,93,90,13.87,US,2020-09-06 23:02:16
11,Asau,46.43,26.4,55.0,96,0,2.33,RO,2020-09-06 23:02:16
12,Bethel,41.37,-73.41,75.2,53,75,5.82,US,2020-09-06 22:57:46
13,Bathsheba,13.22,-59.52,82.4,69,40,12.75,BB,2020-09-06 23:01:04
14,Sur,22.57,59.53,82.29,64,0,10.71,OM,2020-09-06 23:02:17
15,Beringovskiy,63.05,179.32,48.69,76,85,5.88,RU,2020-09-06 23:02:17
16,Mukhen,48.1,136.1,68.58,72,100,1.5,RU,2020-09-06 23:02:17
17,Avarua,-21.21,-159.78,73.4,60,35,8.05,CK,2020-09-06 23:02:17
18,Ponta Do Sol,32.67,-17.1,73.4,73,20,6.93,PT,2020-09-06 23:02:18
19,Cape Town,-33.93,18.42,57.2,82,0,6.93,ZA,2020-09-06 23:00:03
20,Lavrentiya,65.58,-171.0,44.47,71,94,19.15,RU,2020-09-06 23:02:18
21,New Norfolk,-42.78,147.06,60.01,55,72,3.0,AU,2020-09-06 23:02:19
22,Mar Del Plata,-38.0,-57.56,46.0,81,2,4.7,AR,2020-09-06 22:57:24
23,Verkhoyansk,67.54,133.38,47.82,73,100,11.97,RU,2020-09-06 23:02:19
24,Castro,-24.79,-50.01,65.52,57,0,4.85,BR,2020-09-06 22:58:37
25,Arraial Do Cabo,-22.97,-42.03,72.84,83,0,18.99,BR,2020-09-06 23:02:19
26,Port Elizabeth,-33.92,25.57,57.2,100,90,10.29,ZA,2020-09-06 23:02:19
27,Anadyr,64.75,177.48,48.2,93,75,11.18,RU,2020-09-06 23:02:20
28,Victoria,22.29,114.16,84.0,86,61,1.99,HK,2020-09-06 22:58:12
29,Ilulissat,69.22,-51.1,37.4,86,100,6.93,GL,2020-09-06 23:02:20
30,Mount Gambier,-37.83,140.77,62.6,36,56,21.92,AU,2020-09-06 23:02:21
31,Butaritari,3.07,172.79,83.89,72,100,18.41,KI,2020-09-06 23:02:21
32,Thompson,55.74,-97.86,48.2,57,75,12.75,CA,2020-09-06 23:02:21
33,Gorom-Gorom,14.44,-0.24,78.6,72,59,5.3,BF,2020-09-06 23:02:22
34,Berestechko,50.36,25.11,61.0,98,99,4.18,UA,2020-09-06 23:02:22
35,Vanavara,60.34,102.28,43.68,86,100,0.43,RU,2020-09-06 23:02:22
36,Kaitangata,-46.28,169.85,55.0,61,22,1.99,NZ,2020-09-06 23:02:23
37,Punta Arenas,-53.15,-70.92,44.6,70,75,8.05,CL,2020-09-06 23:02:23
38,Hobart,-42.88,147.33,62.01,58,72,12.75,AU,2020-09-06 23:02:23
39,Yellowknife,62.46,-114.35,48.2,61,75,6.93,CA,2020-09-06 23:00:45
40,Alofi,-19.06,-169.92,77.0,50,75,20.8,NU,2020-09-06 23:02:24
41,Bengkulu,-3.8,102.27,75.02,90,100,6.87,ID,2020-09-06 23:02:24
42,Margate,51.38,1.39,61.0,79,9,7.78,GB,2020-09-06 23:02:24
43,Souillac,-20.52,57.52,69.8,88,75,5.82,MU,2020-09-06 23:01:04
44,Puerto Ayora,-0.74,-90.35,68.0,90,88,7.0,EC,2020-09-06 23:02:25
45,Dikson,73.51,80.55,41.99,81,70,20.07,RU,2020-09-06 23:02:25
46,Pangani,-5.43,38.97,74.01,81,47,6.82,TZ,2020-09-06 23:02:25
47,Sivaki,52.63,126.75,55.78,95,70,5.12,RU,2020-09-06 23:02:25
48,Kapaa,22.08,-159.32,86.0,62,20,16.11,US,2020-09-06 23:02:25
49,Hay River,60.82,-115.8,50.0,66,75,3.36,CA,2020-09-06 23:02:26
50,Mataura,-46.19,168.86,45.0,72,49,11.01,NZ,2020-09-06 23:02:26
51,Bluff,-46.6,168.33,45.0,72,75,11.01,NZ,2020-09-06 23:02:27
52,Bemidji,47.47,-94.88,68.0,52,40,31.09,US,2020-09-06 23:00:02
53,Provideniya,64.38,-173.3,42.8,70,75,20.13,RU,2020-09-06 23:02:28
54,Pingliang,35.54,106.69,61.39,49,0,1.95,CN,2020-09-06 23:01:50
55,Palana,59.12,159.97,49.5,69,100,5.32,RU,2020-09-06 23:02:29
56,Geraldton,-28.77,114.6,59.0,82,90,16.11,AU,2020-09-06 23:02:29
57,Den Helder,52.96,4.76,55.99,93,75,2.24,NL,2020-09-06 23:02:30
58,Hithadhoo,-0.6,73.08,82.04,77,100,11.65,MV,2020-09-06 23:02:31
59,Longyearbyen,78.22,15.64,39.2,93,75,5.82,SJ,2020-09-06 23:02:31
60,Muros,42.78,-9.06,57.99,76,1,6.93,ES,2020-09-06 23:02:31
61,Te Anau,-45.42,167.72,46.27,68,23,0.45,NZ,2020-09-06 23:01:53
62,Port Alfred,-33.59,26.89,59.0,86,28,5.19,ZA,2020-09-06 23:02:32
63,Parral,26.93,-105.67,73.18,57,85,9.84,MX,2020-09-06 23:01:01
64,Tuktoyaktuk,69.45,-133.04,42.8,70,20,9.17,CA,2020-09-06 23:02:32
65,Katsuura,35.13,140.3,82.4,88,75,12.75,JP,2020-09-06 23:02:33
66,Busselton,-33.65,115.33,53.01,62,25,19.51,AU,2020-09-06 23:02:33
67,Kermanshah,34.31,47.06,75.2,17,0,2.3,IR,2020-09-06 23:02:34
68,Carnarvon,-24.87,113.63,66.2,100,40,5.82,AU,2020-09-06 23:02:34
69,Bonavista,48.65,-53.11,59.34,70,19,11.61,CA,2020-09-06 23:02:34
70,Rongcheng,30.63,117.85,71.01,84,0,2.51,CN,2020-09-06 23:02:35
71,Qaanaaq,77.48,-69.36,23.88,82,0,2.66,GL,2020-09-06 23:02:36
72,Ballina,-28.87,153.57,64.4,77,90,8.05,AU,2020-09-06 23:01:06
73,Mount Isa,-20.73,139.5,77.0,33,0,9.17,AU,2020-09-06 23:00:18
74,Fairbanks,64.84,-147.72,60.01,51,1,6.93,US,2020-09-06 23:00:43
75,Leningradskiy,69.38,178.42,45.16,60,2,8.12,RU,2020-09-06 23:02:36
76,Vaini,-21.2,-175.2,73.4,69,75,21.21,TO,2020-09-06 23:02:37
77,Delijan,33.99,50.68,71.94,20,0,3.42,IR,2020-09-06 23:02:38
78,Xiongyue,40.18,122.12,69.58,88,100,13.85,CN,2020-09-06 23:02:38
79,Salamanca,40.83,-6.0,68.0,55,0,8.05,ES,2020-09-06 23:01:24
80,Tuatapere,-46.13,167.68,45.0,72,13,11.01,NZ,2020-09-06 23:02:39
81,Port Hardy,50.7,-127.42,62.6,88,75,9.17,CA,2020-09-06 23:02:39
82,Kyshtovka,56.55,76.63,43.34,97,100,6.06,RU,2020-09-06 23:02:40
83,Bredasdorp,-34.53,20.04,48.2,93,3,3.36,ZA,2020-09-06 23:02:40
84,Atuona,-9.8,-139.03,78.42,74,85,17.65,PF,2020-09-06 23:02:40
85,Fengxian,34.7,116.59,69.58,76,0,5.59,CN,2020-09-06 23:02:40
86,Ancud,-41.87,-73.82,50.0,80,0,3.09,CL,2020-09-06 23:02:41
87,Chokurdakh,70.63,147.92,44.6,60,1,9.28,RU,2020-09-06 23:02:41
88,Lompoc,34.64,-120.46,91.4,35,1,14.99,US,2020-09-06 22:59:07
89,Beibei,29.83,106.43,70.0,100,9,4.47,CN,2020-09-06 23:02:42
90,Caravelas,-17.71,-39.25,72.01,87,27,5.73,BR,2020-09-06 23:02:42
91,Anloga,5.79,0.9,77.0,88,40,12.75,GH,2020-09-06 23:02:43
92,Chuy,-33.7,-53.46,49.32,87,8,7.96,UY,2020-09-06 23:02:43
93,Nikolskoye,59.7,30.79,54.0,87,6,4.47,RU,2020-09-06 23:02:44
94,Ranong,9.97,98.63,79.99,83,100,7.31,TH,2020-09-06 23:02:44
95,Isangel,-19.55,169.27,75.92,72,99,13.04,VU,2020-09-06 23:02:44
96,Wanaka,-44.7,169.15,46.99,65,1,1.99,NZ,2020-09-06 23:02:45
97,Oranjemund,-28.55,16.43,56.64,82,0,14.54,NA,2020-09-06 23:02:45
98,Olinda,-8.01,-34.86,77.0,69,20,8.05,BR,2020-09-06 22:58:28
99,Kota Belud,6.35,116.43,75.2,100,20,4.7,MY,2020-09-06 23:02:45
100,Ixtapa,20.7,-105.2,86.0,74,90,6.93,MX,2020-09-06 23:00:09
101,Ostrovnoy,68.05,39.51,52.05,81,63,15.73,RU,2020-09-06 23:02:46
102,Georgetown,5.41,100.34,80.6,94,40,4.68,MY,2020-09-06 23:01:55
103,Vanimo,-2.67,141.3,82.72,70,67,7.56,PG,2020-09-06 23:01:10
104,Pitimbu,-7.47,-34.81,73.4,83,0,6.93,BR,2020-09-06 23:02:46
105,Metro,-5.11,105.31,74.17,95,84,3.87,ID,2020-09-06 23:02:47
106,Kodiak,57.79,-152.41,55.4,93,90,20.8,US,2020-09-06 23:02:47
107,Balabac,7.99,117.06,83.43,71,96,1.25,PH,2020-09-06 23:02:47
108,Severnyy,50.68,36.55,66.2,37,96,4.47,RU,2020-09-06 23:02:48
109,Taksimo,56.34,114.88,58.59,70,98,1.52,RU,2020-09-06 23:02:48
110,Waipawa,-41.41,175.52,54.0,66,32,26.4,NZ,2020-09-06 23:02:48
111,Wajir,1.75,40.06,74.41,56,45,15.1,KE,2020-09-06 23:02:09
112,Sao Filipe,14.9,-24.5,77.95,83,47,19.26,CV,2020-09-06 23:02:49
113,Cidreira,-30.18,-50.21,58.96,93,100,18.77,BR,2020-09-06 23:02:49
114,Alice Springs,-23.7,133.88,75.0,11,0,8.05,AU,2020-09-06 22:58:10
115,Bubaque,11.28,-15.83,79.77,84,100,19.62,GW,2020-09-06 23:02:50
116,Gouyave,12.16,-61.73,86.0,70,20,11.41,GD,2020-09-06 23:02:50
117,Fortuna,40.6,-124.16,88.0,54,1,9.17,US,2020-09-06 23:02:50
118,Mogadishu,2.04,45.34,75.99,80,13,14.76,SO,2020-09-06 22:59:03
119,Riachao Do Jacuipe,-11.81,-39.39,70.66,72,5,8.19,BR,2020-09-06 23:02:51
120,Qorveh,35.17,47.8,55.98,37,0,2.66,IR,2020-09-06 23:02:51
121,Lata,40.16,-8.33,71.01,88,0,2.24,PT,2020-09-06 23:02:51
122,Muriti,-1.98,32.92,73.8,69,69,8.63,TZ,2020-09-06 23:02:52
123,Srednekolymsk,67.45,153.68,51.69,74,100,2.77,RU,2020-09-06 23:02:52
124,Dhuburi,26.03,89.97,77.94,93,100,4.74,IN,2020-09-06 23:02:53
125,Cabadiangan,9.75,122.47,81.73,79,88,2.3,PH,2020-09-06 23:02:53
126,Labuhan,-6.88,112.21,76.91,82,60,9.19,ID,2020-09-06 23:02:53
127,Stuttgart,48.78,9.18,60.01,62,20,2.24,DE,2020-09-06 23:00:15
128,Cabo San Lucas,22.89,-109.91,84.99,69,40,16.11,MX,2020-09-06 22:59:55
129,Khatanga,71.97,102.5,39.65,80,29,4.29,RU,2020-09-06 23:02:54
130,Sola,-13.88,167.55,79.25,83,88,22.03,VU,2020-09-06 23:02:55
131,Upernavik,72.79,-56.15,36.1,83,98,12.15,GL,2020-09-06 23:02:55
132,Uchiza,-8.46,-76.46,78.42,65,100,0.67,PE,2020-09-06 23:02:56
133,Oistins,13.07,-59.53,82.4,69,40,12.75,BB,2020-09-06 23:02:56
134,Port Lincoln,-34.73,135.87,66.79,34,100,28.1,AU,2020-09-06 23:02:56
135,Saint-Pierre,-21.34,55.48,66.2,72,0,6.93,RE,2020-09-06 23:02:57
136,Gorodovikovsk,46.09,41.93,68.25,62,100,4.38,RU,2020-09-06 23:02:57
137,Ardakan,32.31,54.02,73.4,18,0,2.24,IR,2020-09-06 23:02:57
138,Cockburn Town,21.46,-71.14,84.2,70,40,8.05,TC,2020-09-06 23:00:08
139,Panzhihua,26.59,101.71,64.06,83,91,0.63,CN,2020-09-06 23:02:59
140,Van,38.49,43.38,62.6,42,0,1.12,TR,2020-09-06 23:01:08
141,Ambulu,-8.35,113.61,75.13,86,68,4.38,ID,2020-09-06 23:02:59
142,Mana,5.66,-53.78,78.8,87,95,9.62,GF,2020-09-06 23:02:59
143,Hilo,19.73,-155.09,87.8,55,1,3.36,US,2020-09-06 23:02:46
144,Lorengau,-2.02,147.27,84.2,77,10,12.66,PG,2020-09-06 23:03:00
145,Jamestown,42.1,-79.24,68.0,63,1,5.82,US,2020-09-06 23:03:00
146,Maningrida,-12.07,134.27,75.25,72,64,11.36,AU,2020-09-06 23:03:00
147,Klaksvik,62.23,-6.59,50.0,100,100,16.11,FO,2020-09-06 23:03:00
148,Lambarene,-0.7,10.24,73.13,85,19,2.77,GA,2020-09-06 23:03:01
149,Tasiilaq,65.61,-37.64,37.4,93,79,11.41,GL,2020-09-06 23:03:01
150,Loreto,22.27,-101.97,67.77,62,100,15.95,MX,2020-09-06 23:03:01
151,Nishihara,26.18,127.76,80.6,100,75,8.05,JP,2020-09-06 23:03:02
152,Iwanai,42.97,140.51,78.3,76,85,3.49,JP,2020-09-06 23:03:02
153,Lebu,-37.62,-73.65,49.71,86,0,10.98,CL,2020-09-06 23:03:02
154,Torbay,47.67,-52.73,60.01,71,75,9.17,CA,2020-09-06 23:03:03
155,Malanje,-9.54,16.34,68.63,71,61,9.26,AO,2020-09-06 23:03:04
156,Husavik,66.04,-17.34,55.4,76,75,18.34,IS,2020-09-06 23:03:04
157,Kaoma,-14.78,24.8,57.79,42,0,6.93,ZM,2020-09-06 23:03:04
158,General Pico,-35.66,-63.76,50.7,65,36,2.57,AR,2020-09-06 23:03:05
159,Kahului,20.89,-156.47,89.6,43,20,20.8,US,2020-09-06 22:59:45
160,Hambantota,6.12,81.12,79.74,71,100,18.97,LK,2020-09-06 23:03:05
161,Ust-Kuyga,70.02,135.6,44.26,87,100,5.73,RU,2020-09-06 23:03:06
162,Nova Olimpia,-14.8,-57.29,84.74,18,0,3.2,BR,2020-09-06 23:03:06
163,Malangali,-8.57,34.85,61.48,55,6,14.92,TZ,2020-09-06 23:03:06
164,San Quintin,30.48,-115.95,88.72,38,0,6.78,MX,2020-09-06 23:03:07
165,Shingu,33.73,135.98,79.66,90,97,16.4,JP,2020-09-06 23:03:07
166,Santiago,-33.46,-70.65,66.2,34,100,10.29,CL,2020-09-06 23:00:58
167,Viedma,-40.81,-63.0,52.0,58,0,1.01,AR,2020-09-06 23:03:07
168,Chapleau,47.84,-83.4,60.8,59,90,18.34,CA,2020-09-06 23:03:08
169,Shunyi,40.12,116.65,78.01,82,6,6.71,CN,2020-09-06 23:03:08
170,Ahipara,-35.17,173.17,57.78,79,51,15.7,NZ,2020-09-06 23:03:08
171,Plettenberg Bay,-34.05,23.37,56.84,85,7,5.91,ZA,2020-09-06 23:03:08
172,Media Luna,20.14,-77.44,84.38,65,35,1.25,CU,2020-09-06 23:03:09
173,Cayenne,4.93,-52.33,80.6,78,26,3.36,GF,2020-09-06 23:03:04
174,Constitucion,-35.33,-72.42,52.3,81,0,9.98,CL,2020-09-06 23:03:09
175,Aykhal,66.0,111.5,30.2,100,90,4.47,RU,2020-09-06 23:03:09
176,Iqaluit,63.75,-68.51,51.8,40,75,11.41,CA,2020-09-06 23:01:09
177,Lasa,46.62,10.7,51.8,100,40,5.82,IT,2020-09-06 23:03:10
178,Hefei,31.86,117.28,69.8,100,0,4.47,CN,2020-09-06 23:03:10
179,Faanui,-16.48,-151.75,78.13,77,56,11.74,PF,2020-09-06 23:03:11
180,San Luis,-33.3,-66.34,52.77,57,6,17.02,AR,2020-09-06 23:00:22
181,Agirish,61.92,63.02,44.28,94,0,3.31,RU,2020-09-06 23:03:11
182,Pevek,69.7,170.31,43.09,71,0,15.32,RU,2020-09-06 23:03:11
183,Garachine,8.06,-78.36,80.38,82,100,8.3,PA,2020-09-06 23:03:12
184,Chase,50.82,-119.69,82.99,36,72,6.02,CA,2020-09-06 23:03:12
185,Vestmannaeyjar,63.44,-20.27,51.8,93,90,23.04,IS,2020-09-06 23:03:12
186,Itaituba,-4.28,-55.98,84.63,40,34,0.49,BR,2020-09-06 23:03:13
187,Choma,-16.81,26.95,52.84,54,0,3.96,ZM,2020-09-06 23:03:13
188,Rocha,-34.48,-54.33,43.93,91,7,4.79,UY,2020-09-06 22:59:26
189,Nuuk,64.18,-51.72,41.0,86,100,9.17,GL,2020-09-06 23:03:13
190,Pisco,-13.7,-76.22,64.4,72,21,16.11,PE,2020-09-06 23:03:13
191,Wencheng,33.06,113.8,73.58,65,0,4.09,CN,2020-09-06 23:03:14
192,Tiksi,71.69,128.87,43.34,87,98,5.08,RU,2020-09-06 23:03:14
193,Saint Anthony,45.02,-93.22,82.99,39,1,18.34,US,2020-09-06 23:03:15
194,Middle Island,40.88,-72.94,75.2,64,1,12.75,US,2020-09-06 23:03:15
195,Canto Do Buriti,-8.11,-42.94,77.43,33,7,4.21,BR,2020-09-06 23:03:15
196,Saint-Augustin,51.23,-58.65,56.3,67,19,10.04,CA,2020-09-06 23:03:15
197,Kavaratti,10.57,72.64,82.76,78,99,25.55,IN,2020-09-06 23:03:16
198,Amapa,1.0,-52.0,72.46,97,35,2.93,BR,2020-09-06 23:03:16
199,Svetlogorsk,52.63,29.73,60.96,97,99,3.89,BY,2020-09-06 23:03:16
200,Hasaki,35.73,140.83,82.4,88,75,9.17,JP,2020-09-06 23:03:16
201,Puerto Leguizamo,-0.19,-74.78,79.48,77,54,1.01,CO,2020-09-06 23:03:17
202,Jiangyou,31.77,104.72,68.54,74,0,2.68,CN,2020-09-06 23:03:17
203,Codrington,-38.27,141.97,57.22,65,20,23.09,AU,2020-09-06 23:03:17
204,Sao Joao Da Barra,-21.64,-41.05,73.31,84,33,18.99,BR,2020-09-06 23:02:39
205,Marapanim,-0.72,-47.7,77.63,84,11,7.52,BR,2020-09-06 23:03:18
206,Chittaurgarh,24.88,74.63,75.72,86,0,4.74,IN,2020-09-06 23:03:18
207,La Cruz,23.92,-106.9,81.0,84,98,1.99,MX,2020-09-06 23:03:18
208,Guamuchil,25.47,-108.1,89.83,65,10,11.7,MX,2020-09-06 23:03:18
209,Asfi,32.3,-9.24,73.71,72,0,9.64,MA,2020-09-06 23:03:18
210,Kenora,49.82,-94.43,60.8,48,75,28.86,CA,2020-09-06 23:00:52
211,Vardo,70.37,31.11,48.2,87,62,9.17,NO,2020-09-06 23:03:19
212,Klaeng,12.78,101.65,84.99,10,50,2.59,TH,2020-09-06 23:03:19
213,Napier,-39.48,176.92,52.0,78,93,18.99,NZ,2020-09-06 23:03:04
214,Tura,25.52,90.22,74.01,97,100,4.79,IN,2020-09-06 23:03:19
215,Malinyi,-8.93,36.13,71.73,48,42,0.81,TZ,2020-09-06 23:03:19
216,Lewiston,44.1,-70.21,69.8,56,1,6.93,US,2020-09-06 23:03:20
217,Pemangkat,1.17,108.97,76.28,84,100,4.29,ID,2020-09-06 23:03:20
218,Saskylakh,71.92,114.08,41.38,78,64,5.01,RU,2020-09-06 23:03:20
219,Severo-Kurilsk,50.68,156.12,56.86,90,100,5.64,RU,2020-09-06 23:03:20
220,Bilibino,68.05,166.44,41.79,65,0,3.74,RU,2020-09-06 23:03:21
221,Puerto Escondido,15.85,-97.07,77.0,65,90,9.17,MX,2020-09-06 23:03:21
222,Port Blair,11.67,92.75,82.09,82,100,9.48,IN,2020-09-06 23:03:21
223,Grindavik,63.84,-22.43,50.0,100,90,14.99,IS,2020-09-06 23:03:21
224,Sabha,27.04,14.43,84.6,22,0,13.04,LY,2020-09-06 23:03:22
225,Presidente Medici,-11.18,-61.9,88.05,21,5,1.61,BR,2020-09-06 23:03:22
226,Shahreza,32.03,51.88,57.96,31,0,1.63,IR,2020-09-06 23:03:23
227,Slave Lake,55.28,-114.77,51.8,71,90,11.41,CA,2020-09-06 22:59:49
228,Derzhavinsk,51.1,66.32,49.6,71,29,9.98,KZ,2020-09-06 23:03:23
229,East London,-33.02,27.91,63.16,82,100,3.6,ZA,2020-09-06 23:00:01
230,Airai,-8.93,125.41,62.96,54,21,3.76,TL,2020-09-06 23:03:23
231,Indiaroba,-11.52,-37.51,70.38,88,6,2.82,BR,2020-09-06 23:03:24
232,Moron,-34.65,-58.62,53.01,71,2,8.05,AR,2020-09-06 23:03:24
233,Saint George,37.1,-113.58,109.4,6,1,18.34,US,2020-09-06 22:59:38
234,Tamandare,-8.76,-35.1,73.72,79,8,8.66,BR,2020-09-06 23:01:47
235,Takoradi,4.88,-1.76,74.53,89,39,7.96,GH,2020-09-06 23:03:24
236,Khasan,42.43,130.64,62.55,91,100,11.01,RU,2020-09-06 23:03:25
237,Nouadhibou,20.93,-17.03,80.6,61,100,12.75,MR,2020-09-06 23:03:25
238,Talnakh,69.49,88.4,42.8,100,40,6.71,RU,2020-09-06 23:03:25
239,Comodoro Rivadavia,-45.87,-67.5,51.8,57,0,2.24,AR,2020-09-06 23:03:25
240,Walvis Bay,-22.96,14.51,54.0,93,0,9.17,NA,2020-09-06 23:03:26
241,Nanortalik,60.14,-45.24,44.4,93,100,7.87,GL,2020-09-06 23:03:26
242,Chapais,49.78,-74.85,55.4,66,40,4.7,CA,2020-09-06 23:03:26
243,Kruisfontein,-34.0,24.73,53.01,93,0,3.33,ZA,2020-09-06 23:03:26
244,Sao Felix Do Xingu,-6.64,-51.99,88.12,24,50,1.05,BR,2020-09-06 23:03:26
245,Westport,41.14,-73.36,75.0,68,72,8.1,US,2020-09-06 23:02:38
246,Agadir,30.42,-9.6,68.0,88,0,5.82,MA,2020-09-06 23:03:27
247,Iglesias,39.31,8.54,73.0,94,5,4.7,IT,2020-09-06 23:03:27
248,Harper,4.38,-7.72,76.51,84,97,8.75,LR,2020-09-06 23:03:27
249,Turukhansk,65.82,87.98,38.79,89,69,3.13,RU,2020-09-06 23:03:28
250,Bulgan,48.81,103.53,44.69,93,21,1.97,MN,2020-09-06 23:03:28
251,Cholet,47.17,-1.0,54.0,80,9,3.27,FR,2020-09-06 23:03:28
252,Mutis,6.23,-77.4,76.75,85,100,9.19,CO,2020-09-06 23:03:28
253,Mardin,37.31,40.74,74.73,23,0,2.51,TR,2020-09-06 23:03:28
254,Hondo,32.45,130.2,75.2,88,75,32.21,JP,2020-09-06 23:03:29
255,Shangqiu,34.45,115.65,69.94,74,0,4.45,CN,2020-09-06 23:03:29
256,Marzuq,14.4,46.47,79.12,50,45,3.47,YE,2020-09-06 23:03:29
257,Carutapera,-1.2,-46.02,77.32,80,60,7.11,BR,2020-09-06 23:03:30
258,Noumea,-22.28,166.46,73.99,73,100,3.36,NC,2020-09-06 23:03:30
259,Upala,10.9,-85.01,82.4,83,75,5.82,CR,2020-09-06 23:00:19
260,Iisalmi,63.56,27.19,51.8,93,87,5.82,FI,2020-09-06 23:03:31
261,Tazmalt,36.39,4.4,71.6,78,40,3.36,DZ,2020-09-06 23:03:31
262,Storm Lake,42.64,-95.21,89.6,27,1,9.17,US,2020-09-06 23:03:31
263,Tabas,33.6,56.92,80.6,14,0,6.93,IR,2020-09-06 23:03:31
264,Kolyvan,55.31,82.74,44.6,93,75,4.47,RU,2020-09-06 23:03:32
265,Paamiut,61.99,-49.67,44.47,94,100,5.39,GL,2020-09-06 23:03:32
266,Aswan,24.09,32.91,94.91,22,26,10.02,EG,2020-09-06 23:03:32
267,Xining,36.62,101.77,50.02,73,0,2.42,CN,2020-09-06 23:00:39
268,Buala,-8.14,159.59,84.67,69,24,7.0,SB,2020-09-06 23:03:33
269,College,64.86,-147.8,60.01,51,40,9.17,US,2020-09-06 23:02:30
270,Collie,-33.37,116.15,53.01,62,20,6.6,AU,2020-09-06 23:03:33
271,Mahanje,-9.93,35.33,57.67,66,22,2.19,TZ,2020-09-06 23:03:33
272,Thinadhoo,0.53,72.93,82.54,73,100,7.78,MV,2020-09-06 23:03:33
273,Namibe,-15.2,12.15,67.1,89,62,2.35,AO,2020-09-06 23:03:34
274,Hvolsvollur,63.75,-20.22,51.8,93,90,23.04,IS,2020-09-06 23:03:34
275,Bandarbeyla,9.49,50.81,75.67,79,84,28.5,SO,2020-09-06 23:03:34
276,Kurilsk,45.23,147.88,68.5,89,81,3.15,RU,2020-09-06 23:03:34
277,Pedro Ii,-4.42,-41.46,76.05,35,33,4.79,BR,2020-09-06 23:03:35
278,Iralaya,15.0,-83.23,80.6,88,90,11.41,HN,2020-09-06 23:03:35
279,Sao Paulo De Olivenca,-3.38,-68.87,82.94,63,59,1.68,BR,2020-09-06 23:03:35
280,Katherine,-14.47,132.27,73.4,40,87,4.7,AU,2020-09-06 23:03:35
281,Hofn,64.25,-15.21,52.07,92,97,14.63,IS,2020-09-06 23:03:36
282,Laurel,39.1,-76.85,79.0,64,1,4.7,US,2020-09-06 23:03:36
283,Genhe,50.78,121.52,51.55,89,0,0.49,CN,2020-09-06 23:03:36
284,Narsaq,60.92,-46.05,44.6,87,98,1.12,GL,2020-09-06 23:03:36
285,Shaunavon,49.65,-108.42,58.73,50,100,13.58,CA,2020-09-06 23:03:37
286,Yuli,9.7,10.27,72.54,93,72,1.9,NG,2020-09-06 23:03:37
287,Uravakonda,14.95,77.27,79.29,78,8,4.56,IN,2020-09-06 23:03:37
288,Celestun,20.87,-90.4,85.41,69,34,17.07,MX,2020-09-06 23:03:37
289,Jumla,29.27,82.18,57.06,66,1,3.18,NP,2020-09-06 23:01:11
290,Avera,33.19,-82.53,86.0,35,1,5.82,US,2020-09-06 23:03:38
291,Yazman,29.12,71.74,91.0,46,0,8.34,PK,2020-09-06 23:03:38
292,Feltre,46.02,11.91,71.01,86,4,3.74,IT,2020-09-06 23:03:38
293,Murwillumbah,-28.32,153.4,71.01,68,90,11.41,AU,2020-09-06 23:03:25
294,Vittoria,36.95,14.53,73.4,83,5,3.36,IT,2020-09-06 23:03:39
295,Basco,20.45,121.97,83.53,67,58,8.93,PH,2020-09-06 23:03:39
296,Pirovskoye,57.63,92.27,43.75,97,98,6.89,RU,2020-09-06 23:03:39
297,Cherskiy,68.75,161.3,47.61,53,75,13.94,RU,2020-09-06 23:03:39
298,Arica,-18.48,-70.3,60.8,77,40,8.05,CL,2020-09-06 23:01:51
299,Mahebourg,-20.41,57.7,69.8,88,75,5.82,MU,2020-09-06 23:03:40
300,Anjozorobe,-18.4,47.87,55.4,76,75,8.05,MG,2020-09-06 23:03:40
301,Mopti,14.67,-4.0,82.26,68,57,7.16,ML,2020-09-06 23:03:40
302,Kibaha,-6.77,38.92,69.96,88,22,4.81,TZ,2020-09-06 23:03:41
303,Salina,38.84,-97.61,100.4,27,1,23.04,US,2020-09-06 23:03:41
304,High Level,58.52,-117.14,57.2,54,75,9.17,CA,2020-09-06 23:03:41
305,Arman,59.7,150.17,50.41,75,98,1.36,RU,2020-09-06 23:03:41
306,Buchanan,5.88,-10.05,76.35,87,96,9.78,LR,2020-09-06 23:03:41
307,Rio Gallegos,-51.62,-69.22,46.4,61,80,8.05,AR,2020-09-06 23:01:31
308,Lawrenceburg,38.04,-84.9,80.6,51,1,9.17,US,2020-09-06 23:03:42
309,Kabalo,-6.05,26.92,77.0,33,69,3.74,CD,2020-09-06 23:03:43
310,Naze,28.37,129.48,82.4,83,75,8.05,JP,2020-09-06 23:03:43
311,Quzhou,28.96,118.87,70.5,70,0,2.08,CN,2020-09-06 23:03:43
312,Bokoro,12.38,17.06,74.35,85,53,3.33,TD,2020-09-06 23:03:44
313,Tommot,58.96,126.29,51.6,86,54,1.74,RU,2020-09-06 23:03:44
314,Krasnyy Chikoy,50.36,108.75,48.25,89,4,1.52,RU,2020-09-06 23:03:44
315,Picayune,30.53,-89.68,91.4,41,1,5.82,US,2020-09-06 23:03:45
316,Biak,-0.91,122.88,76.6,87,95,7.76,ID,2020-09-06 23:03:45
317,Los Llanos De Aridane,28.66,-17.92,73.4,78,20,6.93,ES,2020-09-06 23:03:45
318,Nevinnomyssk,44.63,41.95,66.0,7,100,4.0,RU,2020-09-06 23:03:45
319,Tagusao,9.19,117.81,81.7,77,100,3.0,PH,2020-09-06 23:03:46
320,Progreso,21.28,-89.67,89.6,66,75,13.87,MX,2020-09-06 23:03:46
321,Tromso,69.65,18.96,48.2,93,90,12.75,NO,2020-09-06 22:58:54
322,Eyl,7.98,49.82,75.72,76,95,22.82,SO,2020-09-06 23:03:46
323,Evensk,61.95,159.23,48.15,73,98,9.35,RU,2020-09-06 23:03:46
324,San Cristobal,7.77,-72.22,84.2,74,40,9.17,VE,2020-09-06 23:03:46
325,Yaan,7.38,8.57,73.18,95,95,4.72,NG,2020-09-06 23:03:47
326,Sangueya,10.7,-14.37,74.14,94,97,4.03,GN,2020-09-06 23:03:47
327,Bara,10.37,10.73,73.99,92,100,6.22,NG,2020-09-06 23:03:47
328,Sao Gabriel Da Cachoeira,-0.13,-67.09,80.62,74,66,0.74,BR,2020-09-06 23:03:48
329,Karratha,-20.74,116.85,66.7,78,20,9.48,AU,2020-09-06 23:01:07
330,Kholmsk,47.05,142.06,64.4,100,81,2.13,RU,2020-09-06 23:03:48
331,Sept-Iles,50.2,-66.38,53.6,76,20,5.82,CA,2020-09-06 23:03:01
332,Ponta Delgada,37.73,-25.67,68.0,77,40,17.22,PT,2020-09-06 23:03:48
333,Atar,20.52,-13.05,92.7,34,100,1.92,MR,2020-09-06 23:03:48
334,Sunrise Manor,36.21,-115.07,114.8,5,1,6.93,US,2020-09-06 23:00:03
335,Sangar,63.92,127.47,45.86,81,70,7.25,RU,2020-09-06 23:03:49
336,Dawlatabad,36.41,64.91,59.4,29,0,3.62,AF,2020-09-06 23:03:49
337,Salalah,17.02,54.09,78.8,88,75,6.93,OM,2020-09-06 23:03:49
338,Chiplun,17.53,73.52,77.4,89,87,1.48,IN,2020-09-06 23:03:50
339,Beidao,34.57,105.89,61.63,66,0,1.79,CN,2020-09-06 23:03:50
340,Bambous Virieux,-20.34,57.76,69.8,88,75,5.82,MU,2020-09-06 23:03:50
341,Richards Bay,-28.78,32.04,64.11,82,81,9.53,ZA,2020-09-06 23:03:51
342,Afua,-0.16,-50.39,78.03,89,34,8.68,BR,2020-09-06 23:01:14
343,Doka,13.52,35.77,72.99,93,26,7.47,SD,2020-09-06 23:03:51
344,Bozeman,45.68,-111.04,86.0,14,1,5.82,US,2020-09-06 23:03:51
345,Hit,33.64,42.83,90.95,12,0,7.54,IQ,2020-09-06 23:03:52
346,Shelburne,44.08,-80.2,71.6,37,1,13.87,CA,2020-09-06 23:03:52
347,Port Macquarie,-31.43,152.92,66.99,65,0,0.96,AU,2020-09-06 22:59:45
348,Ketchikan,55.34,-131.65,60.8,82,90,2.91,US,2020-09-06 23:03:01
349,Visby,57.64,18.3,59.0,71,44,14.99,SE,2020-09-06 23:03:52
350,Aborlan,9.44,118.55,81.32,77,99,3.02,PH,2020-09-06 23:03:52
351,Catalao,-18.17,-47.95,73.06,31,0,8.03,BR,2020-09-06 23:00:43
352,Awbari,26.59,12.78,82.6,20,0,5.95,LY,2020-09-06 23:03:53
353,Buritis,-15.62,-46.42,74.75,32,0,3.33,BR,2020-09-06 23:03:42
354,Burns Lake,54.23,-125.75,61.65,66,89,6.87,CA,2020-09-06 23:03:53
355,Chifeng,42.27,118.96,64.58,73,21,4.25,CN,2020-09-06 23:03:53
356,Shu,43.6,73.76,54.32,40,0,5.32,KZ,2020-09-06 23:03:54
357,Mumford,5.26,-0.76,74.1,91,35,9.89,GH,2020-09-06 23:00:06
358,Poshekhonye,58.5,39.14,57.72,83,93,6.4,RU,2020-09-06 23:03:54
359,Majholi,23.5,79.92,75.22,83,12,3.2,IN,2020-09-06 23:03:54
360,Half Moon Bay,37.46,-122.43,104.0,27,1,17.22,US,2020-09-06 23:03:55
361,Bay Roberts,47.6,-53.26,60.01,65,2,5.7,CA,2020-09-06 23:03:55
362,Front Royal,38.92,-78.19,78.01,57,1,4.7,US,2020-09-06 23:03:55
363,Cowra,-33.83,148.68,54.0,78,0,3.0,AU,2020-09-06 23:03:55
364,Baruun-Urt,46.68,113.28,54.05,81,1,5.35,MN,2020-09-06 23:03:56
365,Bokajan,26.02,93.78,74.82,95,100,2.51,IN,2020-09-06 23:03:56
366,Wajima,37.4,136.9,82.83,72,100,7.72,JP,2020-09-06 23:03:56
367,Lensk,60.73,114.93,50.36,83,72,4.25,RU,2020-09-06 23:03:56
368,Victor Harbor,-35.57,138.62,72.0,30,36,1.01,AU,2020-09-06 23:03:57
369,Kavieng,-2.57,150.8,83.12,78,56,13.42,PG,2020-09-06 23:03:57
370,Arlit,18.74,7.39,93.97,24,0,9.89,NE,2020-09-06 23:03:57
371,Bend,44.06,-121.32,93.2,6,1,4.7,US,2020-09-06 22:59:54
372,Buarcos,40.17,-8.88,64.0,88,0,2.24,PT,2020-09-06 23:03:58
373,Darnah,32.77,22.64,77.18,69,0,14.79,LY,2020-09-06 23:03:58
374,Esperance,-33.87,121.9,50.0,100,90,14.99,AU,2020-09-06 23:03:59
375,Pandan,14.05,124.17,82.85,77,96,4.65,PH,2020-09-06 23:03:59
376,Ouesso,1.61,16.05,71.82,88,99,1.81,CG,2020-09-06 23:04:00
377,Aklavik,68.22,-135.01,46.4,47,20,5.82,CA,2020-09-06 23:04:00
378,Henties Bay,-22.12,14.28,54.0,92,0,5.99,NA,2020-09-06 23:04:00
379,Jaque,7.52,-78.17,78.94,84,100,11.7,PA,2020-09-06 23:04:00
380,Lamu,-2.27,40.9,75.49,80,4,13.67,KE,2020-09-06 23:04:01
381,Ati,13.22,18.34,77.72,77,76,7.78,TD,2020-09-06 23:01:54
382,East Wenatchee Bench,47.43,-120.28,96.01,15,1,4.7,US,2020-09-06 23:04:01
383,Zhangjiakou,40.81,114.88,61.9,71,0,5.84,CN,2020-09-06 23:04:01
384,Pangkalanbuun,-2.68,111.62,75.45,96,100,0.89,ID,2020-09-06 23:04:01
385,Palizada,18.25,-92.08,86.0,74,40,10.29,MX,2020-09-06 23:04:02
386,Saint-Louis,16.33,-15.0,82.4,88,28,11.97,SN,2020-09-06 23:04:02
387,Leshukonskoye,64.9,45.76,57.13,91,100,6.24,RU,2020-09-06 23:04:02
388,Bonthe,7.53,-12.51,75.78,91,100,8.16,SL,2020-09-06 23:04:02
389,Ostuni,40.73,17.58,75.99,78,0,3.36,IT,2020-09-06 23:04:02
390,Luderitz,-26.65,15.16,58.98,69,0,18.21,NA,2020-09-06 23:04:03
391,Tiarei,-17.53,-149.33,84.2,70,75,11.41,PF,2020-09-06 23:04:03
392,Innisfail,-17.53,146.03,66.0,86,79,7.0,AU,2020-09-06 22:59:21
393,Kenai,60.55,-151.26,60.8,41,1,8.05,US,2020-09-06 23:04:03
394,Fenelon Falls,44.53,-78.75,66.2,52,1,6.93,CA,2020-09-06 23:04:03
395,Houma,29.6,-90.72,91.4,43,5,9.17,US,2020-09-06 23:04:04
396,Mansa,29.98,75.38,80.29,73,4,3.11,IN,2020-09-06 23:04:04
397,Puerto Narino,-3.77,-70.38,84.2,79,75,2.24,CO,2020-09-06 23:04:04
398,Sawtell,-30.38,153.1,66.0,72,40,6.93,AU,2020-09-06 23:04:04
399,Mecca,21.43,39.83,88.12,37,0,2.86,SA,2020-09-06 23:03:37
400,Freeport,40.66,-73.58,75.99,64,1,12.75,US,2020-09-06 23:01:38
401,Ilinskiy,55.62,38.12,61.0,87,97,4.47,RU,2020-09-06 23:04:05
402,Najran,17.49,44.13,77.0,23,25,2.06,SA,2020-09-06 23:04:05
403,Farnham,51.21,-0.8,55.4,87,34,4.7,GB,2020-09-06 23:04:05
404,Oloron-Sainte-Marie,43.19,-0.61,60.8,67,90,8.05,FR,2020-09-06 23:03:43
405,Clyde River,70.47,-68.59,39.2,64,40,17.22,CA,2020-09-06 23:04:06
406,Baijiantan,45.63,85.18,60.67,54,99,40.02,CN,2020-09-06 23:04:06
407,Cap Malheureux,-19.98,57.61,66.99,89,92,3.0,MU,2020-09-06 23:01:09
408,Poronaysk,49.22,143.12,65.32,74,100,1.1,RU,2020-09-06 23:04:06
409,Sitka,57.05,-135.33,60.8,72,40,6.93,US,2020-09-06 23:04:06
410,Guerrero Negro,27.98,-114.06,93.74,37,0,12.75,MX,2020-09-06 23:04:07
411,Honiara,-9.43,159.95,84.2,74,40,11.41,SB,2020-09-06 23:04:07
412,Dig,27.47,77.33,84.0,65,0,2.71,IN,2020-09-06 22:59:14
413,Mitsamiouli,-11.38,43.28,74.71,72,0,3.89,KM,2020-09-06 23:04:07
414,Dudinka,69.41,86.18,42.8,100,40,6.71,RU,2020-09-06 23:04:08
415,Antigonish,45.62,-62.0,64.99,66,40,4.72,CA,2020-09-06 23:04:08
416,De-Kastri,51.47,140.78,67.87,72,1,5.14,RU,2020-09-06 23:04:08
417,Sibolga,1.74,98.78,76.1,74,97,4.0,ID,2020-09-06 23:01:05
418,Katima Mulilo,-17.5,24.27,64.4,36,0,3.36,NA,2020-09-06 23:04:09
419,Beckley,37.78,-81.19,75.2,47,1,5.82,US,2020-09-06 23:04:09
420,Sinnamary,5.38,-52.95,79.14,86,74,10.69,GF,2020-09-06 23:04:09
421,Kautokeino,69.01,23.04,43.7,83,67,3.78,NO,2020-09-06 23:04:09
422,Nazilli,37.92,28.32,71.28,43,0,3.02,TR,2020-09-06 23:04:10
423,Tambo,-14.8,-73.92,42.55,53,75,5.66,PE,2020-09-06 23:04:10
424,Broome,42.25,-75.83,68.0,56,1,3.36,US,2020-09-06 23:04:10
425,Quelimane,-17.88,36.89,69.8,77,20,4.7,MZ,2020-09-06 23:04:11
426,Elk City,35.41,-99.4,93.2,32,1,20.8,US,2020-09-06 23:04:03
427,Haslett,42.75,-84.4,71.6,56,20,18.34,US,2020-09-06 23:04:11
428,Dharampuri,22.17,75.35,80.44,76,8,1.19,IN,2020-09-06 23:04:11
429,Taicheng,38.73,113.23,59.92,66,29,3.42,CN,2020-09-06 23:04:11
430,Tenosique,17.48,-91.43,84.61,85,37,4.54,MX,2020-09-06 23:04:12
431,Flin Flon,54.77,-101.86,50.0,53,75,17.22,CA,2020-09-06 23:04:12
432,Coihaique,-45.58,-72.07,50.0,61,39,5.82,CL,2020-09-06 23:04:12
433,Nhulunbuy,-12.23,136.77,80.6,69,57,11.41,AU,2020-09-06 23:04:13
434,The Valley,18.22,-63.06,86.0,70,40,8.05,AI,2020-09-06 23:04:13
435,Pachino,36.72,15.09,75.0,82,38,2.46,IT,2020-09-06 23:04:13
436,Bandeirantes,-23.11,-50.37,75.22,36,0,2.84,BR,2020-09-06 23:00:14
437,Vao,-22.67,167.48,71.11,78,100,16.62,NC,2020-09-06 23:04:13
438,Ust-Kulom,61.69,53.69,49.23,95,0,2.98,RU,2020-09-06 23:04:13
439,Faya,18.39,42.45,69.8,21,0,6.55,SA,2020-09-06 23:04:14
440,Andros Town,24.7,-77.77,80.6,88,90,10.29,BS,2020-09-06 23:04:14
441,Serebryanyy Bor,56.8,124.8,49.82,80,0,2.51,RU,2020-09-06 23:04:14
442,Ouegoa,-20.35,164.43,76.21,65,100,12.84,NC,2020-09-06 23:04:15
443,Presidencia Roque Saenz Pena,-26.79,-60.44,61.09,76,100,7.99,AR,2020-09-06 23:04:15
444,Touros,-5.2,-35.46,75.2,73,67,6.93,BR,2020-09-06 23:04:15
445,Profitis Ilias,35.21,25.1,77.0,61,0,12.75,GR,2020-09-06 23:04:16
446,Sajanan,37.06,9.24,75.2,78,40,2.24,TN,2020-09-06 23:04:16
447,Amga,60.9,131.96,48.04,86,38,6.82,RU,2020-09-06 23:04:16
448,Namatanai,-3.67,152.43,83.75,72,8,7.58,PG,2020-09-06 23:04:16
449,Aksarka,66.56,67.8,48.45,58,72,4.05,RU,2020-09-06 23:04:17
450,Canaries,28.0,-15.5,75.0,83,20,17.22,ES,2020-09-06 23:04:17
451,Saint Pete Beach,27.73,-82.74,90.0,66,40,11.41,US,2020-09-06 23:04:17
452,San Isidro,-12.12,-77.05,60.8,77,90,11.41,PE,2020-09-06 23:04:17
453,Vilhena,-12.74,-60.15,82.33,23,35,2.53,BR,2020-09-06 23:04:18
454,Zambezi,-13.54,23.1,63.77,29,0,6.11,ZM,2020-09-06 23:04:18
455,Ribeira Grande,38.52,-28.7,69.1,74,11,25.88,PT,2020-09-06 23:04:19
456,Joura,26.34,77.81,82.11,72,29,5.66,IN,2020-09-06 23:04:19
457,Haines Junction,60.75,-137.51,60.89,36,0,2.77,CA,2020-09-06 23:04:19
458,San Patricio,19.22,-104.7,89.6,75,75,11.41,MX,2020-09-06 23:04:19
459,Yeppoon,-23.13,150.73,69.8,73,75,11.41,AU,2020-09-06 23:04:20
460,Khorol,49.78,33.28,64.49,40,75,6.78,UA,2020-09-06 23:04:20
461,Luanda,-8.84,13.23,71.6,94,75,3.36,AO,2020-09-06 23:04:20
462,Show Low,34.25,-110.03,93.2,5,1,10.29,US,2020-09-06 23:04:20
463,Santa Cruz,-17.8,-63.17,82.4,48,40,9.17,BO,2020-09-06 23:04:20
464,Yar-Sale,66.83,70.83,37.67,77,0,1.05,RU,2020-09-06 23:04:21
465,Itupiranga,-5.13,-49.33,86.0,51,3,1.12,BR,2020-09-06 23:04:21
466,Manzanillo,20.34,-77.12,83.37,74,43,4.9,CU,2020-09-06 23:04:21
467,Samarai,-10.62,150.67,78.96,86,99,16.62,PG,2020-09-06 23:04:21
468,Esso,55.93,158.7,48.07,85,100,3.91,RU,2020-09-06 23:04:22
469,Omsukchan,62.53,155.8,39.6,85,100,7.23,RU,2020-09-06 23:04:22
470,Zhigansk,66.77,123.37,43.74,85,84,17.78,RU,2020-09-06 23:04:22
471,Bardiyah,31.76,25.09,72.99,70,0,4.61,LY,2020-09-06 23:04:22
472,Mawlaik,23.63,94.42,76.37,94,99,1.23,MM,2020-09-06 23:04:22
473,Eureka,40.8,-124.16,88.0,60,1,5.82,US,2020-09-06 23:03:29
474,Ossora,59.24,163.07,51.69,72,90,14.61,RU,2020-09-06 23:04:23
475,Zhaodong,46.08,125.98,71.01,100,99,2.24,CN,2020-09-06 23:04:23
476,Santa Maria,-29.68,-53.81,57.78,94,100,10.02,BR,2020-09-06 23:02:30
477,Zhaoyuan,37.36,120.4,75.0,83,0,5.1,CN,2020-09-06 23:04:24
478,Birjand,32.87,59.22,62.6,25,0,6.93,IR,2020-09-06 23:04:24
479,Broken Hill,-31.95,141.43,57.2,44,0,10.29,AU,2020-09-06 23:04:24
480,Sedhiou,12.71,-15.56,77.0,94,90,4.7,SN,2020-09-06 23:04:25
481,Nago,26.59,127.98,82.0,88,1,10.29,JP,2020-09-06 23:04:25
482,Oksfjord,70.24,22.35,51.8,81,100,9.17,NO,2020-09-06 23:04:25
483,Kalmunai,7.42,81.82,78.67,71,98,4.85,LK,2020-09-06 23:04:25
484,Banda Aceh,5.56,95.32,78.21,72,100,5.37,ID,2020-09-06 23:04:25
485,Ambilobe,-13.2,49.05,67.69,75,38,3.0,MG,2020-09-06 23:04:26
486,Dingle,11.0,122.67,80.08,84,57,1.14,PH,2020-09-06 23:04:26
487,Pangnirtung,66.15,-65.71,40.57,70,55,2.46,CA,2020-09-06 23:04:26
488,Mehamn,71.04,27.85,50.0,87,75,236.0,NO,2020-09-06 23:04:26
489,Nsunga,-1.14,31.39,67.6,80,99,4.65,TZ,2020-09-06 23:04:27
490,Pedernales,18.04,-71.74,83.75,73,100,1.57,DO,2020-09-06 23:04:27
491,Oblivskaya,48.54,42.5,64.96,29,99,8.99,RU,2020-09-06 23:04:27
492,Mufumbwe,-13.68,24.8,59.38,36,0,7.29,ZM,2020-09-06 23:04:27
493,Hurghada,27.26,33.81,91.4,31,40,11.41,EG,2020-09-06 23:01:40
494,La Ronge,55.1,-105.28,50.0,61,75,13.87,CA,2020-09-06 23:04:28
495,Burnie,-41.07,145.92,53.35,78,21,4.0,AU,2020-09-06 23:02:55
496,Kvitok,56.07,98.48,46.13,69,87,7.85,RU,2020-09-06 23:04:28
497,Nemuro,43.32,145.57,68.34,95,88,9.6,JP,2020-09-06 23:04:28
498,Cherdakly,54.36,48.84,48.2,81,0,7.05,RU,2020-09-06 23:04:29
499,Pathein,16.78,94.73,78.24,90,84,3.71,MM,2020-09-06 23:03:47
500,Porbandar,21.64,69.61,81.95,84,37,8.46,IN,2020-09-06 23:04:29
501,Trinidad,-14.83,-64.9,91.4,59,65,1.9,BO,2020-09-06 23:00:17
502,Okahandja,-21.98,16.92,69.8,32,19,2.24,NA,2020-09-06 23:04:29
503,Guilin,25.28,110.29,77.0,94,90,4.47,CN,2020-09-06 23:04:29
504,Verkhnevilyuysk,63.45,120.32,44.06,85,8,3.27,RU,2020-09-06 23:04:30
505,Tomra,62.58,6.93,51.8,81,45,3.36,NO,2020-09-06 23:04:30
506,Poum,-20.23,164.02,73.74,76,100,7.92,NC,2020-09-06 23:04:30
507,Pierre,44.37,-100.35,87.8,22,1,18.34,US,2020-09-06 22:59:57
508,Ha Tinh,18.33,105.9,82.54,71,100,4.45,VN,2020-09-06 23:04:31
509,Sao Miguel Do Araguaia,-13.28,-50.16,81.99,23,17,1.48,BR,2020-09-06 23:04:31
510,Kudat,6.88,116.85,75.2,100,20,3.36,MY,2020-09-06 23:04:31
511,Hurricane,37.18,-113.29,109.4,6,1,18.34,US,2020-09-06 23:04:32
512,Marathon,44.9,-89.77,71.01,73,90,10.29,US,2020-09-06 23:04:33
513,Barahona,18.21,-71.1,81.55,77,98,5.95,DO,2020-09-06 23:04:33
514,Pitkyaranta,61.57,31.48,53.98,92,0,7.74,RU,2020-09-06 23:04:33
515,Rio Verde De Mato Grosso,-18.92,-54.84,84.94,16,23,3.6,BR,2020-09-06 23:04:33
516,Luau,-10.71,22.22,69.62,25,0,3.62,AO,2020-09-06 23:04:34
517,Macae,-22.37,-41.79,71.13,81,16,11.18,BR,2020-09-06 23:04:34
518,Toppenish,46.38,-120.31,95.0,19,1,1.07,US,2020-09-06 23:04:34
519,Sioux Lookout,50.1,-91.92,60.8,82,40,8.05,CA,2020-09-06 23:00:39
520,Tilichiki,60.47,166.1,46.8,69,97,3.04,RU,2020-09-06 23:04:35
521,Hamilton,39.18,-84.53,80.6,57,1,8.05,US,2020-09-06 23:00:09
522,Itarema,-2.92,-39.92,78.03,78,35,13.62,BR,2020-09-06 23:04:35
523,Marawi,8.0,124.29,78.01,84,40,5.01,PH,2020-09-06 23:04:35
524,Maragogi,-9.01,-35.22,73.18,79,0,8.97,BR,2020-09-06 23:04:35
525,Abu Kamal,34.45,40.92,84.58,14,0,3.22,SY,2020-09-06 23:04:35
526,Walajapet,12.93,79.38,77.92,89,19,1.88,IN,2020-09-06 23:04:36
527,Yenagoa,4.92,6.26,74.46,89,100,4.61,NG,2020-09-06 23:04:36
528,Basoko,1.24,23.62,70.2,87,67,1.39,CD,2020-09-06 23:04:36
529,Stawell,-37.05,142.77,51.49,73,0,17.63,AU,2020-09-06 23:04:37
530,Sambava,-14.27,50.17,65.64,80,0,8.57,MG,2020-09-06 23:04:37
531,Saint-Agapit,46.56,-71.44,64.99,60,20,3.4,CA,2020-09-06 23:04:37
532,Auki,-8.77,160.7,83.32,74,39,2.33,SB,2020-09-06 23:04:38
533,Valparaiso,-33.04,-71.63,57.2,71,99,9.17,CL,2020-09-06 23:04:38
534,Nabire,-3.37,135.48,79.93,84,95,2.84,ID,2020-09-06 23:00:22
535,Caiaponia,-16.96,-51.81,74.14,22,0,1.9,BR,2020-09-06 23:04:38
536,Port Hedland,-20.32,118.57,66.2,88,28,10.29,AU,2020-09-06 23:04:39
537,Bryan,30.67,-96.37,93.2,46,75,3.36,US,2020-09-06 23:04:39
538,Zhaotong,27.32,103.72,53.62,83,95,1.01,CN,2020-09-06 23:04:39
539,Boda,4.32,17.47,68.32,93,99,1.52,CF,2020-09-06 23:04:40
540,Pasuquin,18.33,120.62,77.0,94,20,3.36,PH,2020-09-06 23:04:40
541,Usinsk,65.99,57.53,51.44,93,58,11.18,RU,2020-09-06 23:04:40
542,Usogorsk,63.41,48.69,55.74,89,99,5.95,RU,2020-09-06 23:04:41
543,Yulara,-25.24,130.99,59.0,28,0,3.36,AU,2020-09-06 23:04:41
544,Obidos,-1.92,-55.52,85.89,52,62,4.79,BR,2020-09-06 23:04:41
545,Maralal,1.1,36.7,57.78,93,35,2.28,KE,2020-09-06 23:04:41
546,Matara,5.95,80.54,77.61,81,100,9.91,LK,2020-09-06 23:04:42
547,Mangai,-4.05,19.53,72.59,90,68,3.18,CD,2020-09-06 23:04:42
548,Alexandria,31.22,29.96,78.8,74,40,8.05,EG,2020-09-06 23:01:38
549,Bograd,54.23,90.83,50.0,87,100,2.24,RU,2020-09-06 23:04:42
550,Colares,38.8,-9.45,75.99,30,0,11.88,PT,2020-09-06 23:04:43
551,Oktyabrskiy,54.48,53.47,49.3,82,40,2.28,RU,2020-09-06 23:04:43
552,Rawson,-43.3,-65.1,52.32,49,0,8.14,AR,2020-09-06 23:04:43
553,Son La,21.32,103.9,70.95,95,100,1.36,VN,2020-09-06 23:04:44
554,Cam Ranh,11.92,109.16,80.6,88,20,2.24,VN,2020-09-06 23:04:44
555,Manaure,11.78,-72.44,88.12,64,7,13.76,CO,2020-09-06 23:04:44
556,Kirakira,-10.45,161.92,78.85,86,94,13.82,SB,2020-09-06 23:04:45
557,Erzin,36.96,36.2,80.01,83,0,1.52,TR,2020-09-06 23:04:45
558,Mattru,7.62,-11.83,72.63,98,100,2.42,SL,2020-09-06 23:04:45
559,Prince Rupert,54.32,-130.32,59.0,93,90,3.36,CA,2020-09-06 23:04:45
560,Hualmay,-11.1,-77.61,61.75,78,71,8.28,PE,2020-09-06 23:04:46
561,Split,43.51,16.44,66.2,72,0,3.36,HR,2020-09-06 23:01:32
562,Bambanglipuro,-7.95,110.28,76.19,86,97,7.52,ID,2020-09-06 23:03:24
563,Jalu,29.03,21.55,76.89,56,0,10.2,LY,2020-09-06 23:04:46
564,Gavle,60.67,17.14,48.99,92,20,1.01,SE,2020-09-06 23:04:46
565,Langsa,4.47,97.97,75.52,88,100,1.68,ID,2020-09-06 23:04:47
566,Balkanabat,39.51,54.37,78.66,16,0,24.16,TM,2020-09-06 23:04:47
567,Khrebtovaya,56.7,104.25,39.61,91,0,2.77,RU,2020-09-06 23:04:47
568,Khandyga,62.67,135.6,50.63,96,100,2.8,RU,2020-09-06 23:04:47
569,Sao Lourenco,-22.12,-45.05,64.89,40,57,2.55,BR,2020-09-06 23:02:43
570,Mbandaka,0.05,18.26,70.95,93,94,2.57,CD,2020-09-06 23:04:48
571,Kano,12.0,8.52,73.81,82,12,4.47,NG,2020-09-06 23:04:48
572,Edd,13.93,41.69,89.71,57,19,1.14,ER,2020-09-06 23:04:49
573,Guarda,40.54,-7.27,64.99,67,0,3.91,PT,2020-09-06 23:04:49
574,Tailai,46.38,123.4,63.57,82,69,7.9,CN,2020-09-06 23:04:50
575,Portland,45.52,-122.68,90.0,35,20,10.29,US,2020-09-06 23:00:44
576,Chauk,20.88,94.82,79.02,79,100,8.81,MM,2020-09-06 23:04:50
577,San Jose Iturbide,21.0,-100.38,73.0,64,90,13.87,MX,2020-09-06 23:03:04
578,Cabedelo,-6.98,-34.83,73.4,83,8,6.93,BR,2020-09-06 23:00:28
579,Young,-32.68,-57.63,57.0,69,53,4.0,UY,2020-09-06 23:04:51
580,Axim,4.87,-2.24,75.09,87,51,7.78,GH,2020-09-06 23:00:13
581,Bagotville,-28.98,153.42,64.4,77,90,8.05,AU,2020-09-06 23:04:51
582,Makakilo City,21.35,-158.09,86.0,74,75,6.93,US,2020-09-06 23:04:51
583,Lahaina,20.88,-156.68,89.6,51,1,18.34,US,2020-09-06 23:04:52
584,Kirkland Lake,48.14,-80.04,62.6,51,20,17.22,CA,2020-09-06 23:04:52
585,Hatta,24.12,79.6,77.04,78,1,4.27,IN,2020-09-06 23:04:53
586,Boca Do Acre,-8.75,-67.4,86.79,40,85,0.81,BR,2020-09-06 23:04:53
587,Pangody,65.85,74.49,47.12,86,89,2.08,RU,2020-09-06 23:04:39
588,Monterey,36.25,-121.25,113.0,29,1,12.75,US,2020-09-06 23:04:53
589,Egvekinot,66.32,-179.17,42.64,64,81,1.7,RU,2020-09-06 23:04:54
590,Olafsvik,64.89,-23.71,50.05,91,99,19.39,IS,2020-09-06 23:04:54
591,Araceli,10.55,119.99,83.77,71,100,1.54,PH,2020-09-06 23:04:55
592,Dubbo,-32.25,148.62,59.0,72,0,16.11,AU,2020-09-06 23:02:26
593,Sinegorye,62.08,150.48,52.66,62,72,2.82,RU,2020-09-06 23:04:55
594,Juneau,58.3,-134.42,60.8,51,20,8.05,US,2020-09-06 23:04:14
595,Berea,41.37,-81.85,73.0,49,90,8.05,US,2020-09-06 23:03:13
596,Klyuchevskiy,53.53,119.45,52.27,79,0,3.02,RU,2020-09-06 23:04:55
597,Temerloh,3.45,102.42,72.88,93,99,2.15,MY,2020-09-06 23:04:56
598,Inta,66.03,60.17,52.59,91,32,8.68,RU,2020-09-06 23:04:56
599,Zanesville,39.94,-82.01,75.2,53,1,4.7,US,2020-09-06 23:00:14
600,Ojinaga,29.57,-104.42,91.4,29,40,5.82,MX,2020-09-06 23:04:56
601,Itoman,26.12,127.67,82.0,83,75,12.75,JP,2020-09-06 23:04:57
602,Siddipet,18.1,78.85,75.54,91,100,7.7,IN,2020-09-06 23:04:57
603,Zyryanka,65.75,150.85,46.56,91,100,16.02,RU,2020-09-06 23:04:57
604,Manicore,-5.81,-61.3,84.24,32,13,1.1,BR,2020-09-06 23:04:57
605,Ilmajoki,62.73,22.57,46.99,100,20,2.24,FI,2020-09-06 23:04:58
606,Sarakhs,36.54,61.16,66.2,25,0,2.24,IR,2020-09-06 23:04:58
607,Madison Heights,42.49,-83.11,71.6,68,1,13.87,US,2020-09-06 23:04:58
608,Wamba,8.93,8.6,70.79,94,61,2.75,NG,2020-09-06 23:04:58
609,Kakogawa,34.77,134.85,86.0,83,75,12.75,JP,2020-09-06 23:04:59
610,Dilla,6.41,38.31,61.18,82,52,4.03,ET,2020-09-06 23:04:59
611,Coari,-4.08,-63.14,83.91,49,57,2.24,BR,2020-09-06 23:00:47
612,Breves,-1.68,-50.48,82.58,69,76,6.55,BR,2020-09-06 23:04:59
613,Saldanha,-33.01,17.94,51.8,76,0,2.24,ZA,2020-09-06 23:05:00
614,Harlingen,26.19,-97.7,86.0,70,75,10.29,US,2020-09-06 23:05:00
615,Valmiera,57.54,25.43,50.0,97,46,1.01,LV,2020-09-06 23:05:00
616,Castle Douglas,54.94,-3.93,53.01,92,100,2.71,GB,2020-09-06 23:05:01
617,Korla,41.76,86.15,75.99,74,58,5.01,CN,2020-09-06 23:05:01
618,Kidodi,-7.6,37.0,67.84,74,31,1.41,TZ,2020-09-06 23:05:01
619,Fort William,56.82,-5.11,55.99,89,98,3.0,GB,2020-09-06 23:05:02
620,Upington,-28.45,21.26,55.4,35,0,4.7,ZA,2020-09-06 23:05:02
621,Samana,19.21,-69.34,84.2,79,40,4.7,DO,2020-09-06 23:05:02
622,Havre-Saint-Pierre,50.23,-63.6,51.8,76,1,13.87,CA,2020-09-06 23:05:02
623,Tessalit,20.2,1.01,91.0,30,34,5.59,ML,2020-09-06 23:05:03
624,Marystown,47.17,-55.15,60.01,100,13,4.63,CA,2020-09-06 23:05:03
625,Esfarayen,37.08,57.51,69.8,22,0,4.7,IR,2020-09-06 23:05:04
626,Laguna,38.42,-121.42,111.0,15,1,9.17,US,2020-09-06 23:05:04
627,Wanning,18.8,110.4,81.84,83,100,8.61,CN,2020-09-06 23:05:04
628,Asnaes,55.81,11.5,55.0,79,0,7.0,DK,2020-09-06 23:05:04
629,Iraray,8.99,118.05,81.12,78,93,3.0,PH,2020-09-06 23:05:05
630,Goundam,16.41,-3.67,90.9,44,12,5.39,ML,2020-09-06 23:05:05
631,Deputatskiy,69.3,139.9,40.82,95,100,3.36,RU,2020-09-06 23:05:05
632,Mogapi,-22.32,27.83,50.52,85,0,8.55,BW,2020-09-06 23:05:06
633,Isla Mujeres,21.23,-86.73,86.0,70,75,8.05,MX,2020-09-06 23:05:06
634,Holeby,54.71,11.46,57.0,91,8,11.88,DK,2020-09-06 23:05:06
635,Privas,44.58,4.5,66.0,46,4,4.0,FR,2020-09-06 23:05:06
636,Isugod,9.34,118.12,81.66,77,100,0.49,PH,2020-09-06 23:05:07
637,Vigrestad,58.57,5.7,51.01,95,14,18.05,NO,2020-09-06 23:05:07
638,Olonets,60.98,32.97,52.65,93,2,3.85,RU,2020-09-06 23:05:07
639,Goure,13.98,10.27,77.0,74,92,5.01,NE,2020-09-06 23:05:07
640,Sumbe,-11.21,13.84,70.63,85,21,1.79,AO,2020-09-06 23:05:08
641,Burgeo,47.62,-57.62,57.99,81,0,9.24,CA,2020-09-06 23:05:08
642,Iranshahr,27.2,60.68,86.18,13,0,8.63,IR,2020-09-06 23:05:08
643,Sorland,67.67,12.69,51.21,81,100,4.25,NO,2020-09-06 23:05:09
644,Fukue,32.69,128.84,75.92,85,100,38.41,JP,2020-09-06 23:05:09
645,Karaton,-6.34,106.1,81.0,83,20,3.36,ID,2020-09-06 23:05:09
646,Lugo,43.0,-7.5,55.99,100,26,8.99,ES,2020-09-06 23:05:09
647,Krasnoyarka,55.33,73.12,42.8,100,75,11.18,RU,2020-09-06 23:05:10
648,Sao Jose Da Coroa Grande,-8.9,-35.15,73.65,78,2,9.06,BR,2020-09-06 23:05:10
649,Mombetsu,44.35,143.35,73.99,78,66,3.0,JP,2020-09-06 23:05:10
650,Kungurtug,50.6,97.52,44.22,85,0,3.24,RU,2020-09-06 23:05:11
651,Bagnes,46.08,7.22,60.8,59,75,6.93,CH,2020-09-06 23:05:11
652,Howard Springs,-12.5,131.05,81.0,78,44,4.7,AU,2020-09-06 23:05:11
653,Kulhudhuffushi,6.62,73.07,82.13,77,100,16.62,MV,2020-09-06 23:04:37
654,San Pedro,14.35,121.02,82.99,83,100,3.36,PH,2020-09-06 23:02:49
655,Lanzhou,36.06,103.79,61.0,71,0,1.23,CN,2020-09-06 23:05:11
656,Udachnyy,66.42,112.4,30.2,100,90,4.47,RU,2020-09-06 23:02:41
657,Bogatyye Saby,56.01,50.45,49.59,83,0,4.59,RU,2020-09-06 23:05:12
658,Krynychky,48.38,34.47,62.6,51,32,8.95,UA,2020-09-06 23:05:12
659,Kommunar,59.62,30.39,54.0,87,3,4.47,RU,2020-09-06 23:05:12
660,Talas,38.69,35.55,59.0,67,5,4.7,TR,2020-09-06 23:05:13
661,Surok,56.45,48.12,50.0,66,0,4.47,RU,2020-09-06 23:05:13
662,Vila Franca Do Campo,37.72,-25.43,68.0,77,40,17.22,PT,2020-09-06 23:05:13
